station,latitude,longitude,river,RPI,DO(Electrode),BOD5,SS,NH3-N,pH,temperature
Upper Huang River Bridge,25.17920888888889,121.58227305555555,Huang River,1.00,7.8,1.0,8.4,0.11,2.37,25.3
Huang River Bridge,25.226952999999998,121.630624,Huang River,3.50,7.3,10.8,97.1,0.19,4.00,28.5
No. 40 Bridge,25.227356999999998,121.630912,Huang River,4.50,6.6,12.7,131,0.17,4.62,28.9
Jhongshou Bridge.,25.051144,121.500209,Danshuei River,6.25,4.6,5.0,167,1.41,7.42,26.4
Chongyang Bridge,25.08417397222222,121.50279694444444,Danshuei River,4.00,3.3,2.7,35.6,1.47,7.22,27.2
Gwandu Bridge,25.124816944444444,121.45723694444445,Danshuei River,5.00,1.7,2.2,47.0,1.56,7.52,27.6
Danshuei River Mouth,25.170901111111114,121.422745,Danshuei River,3.25,3.7,<1.0,37.8,0.56,7.64,28.9
Dahan Bridge,24.88467397222222,121.283827,Danshuei River,2.25,8.4,<1.0,57.2,0.04,7.77,25.8
Bansin Intake,24.930705,121.341425,Danshuei River,1.50,7.6,1.4,28.9,0.04,8.02,26.8
Sanying Bridge,24.944761111111113,121.35322305555555,Danshuei River,1.50,8.1,1.5,24.2,0.09,7.26,27.3
Fuchou Bridge,24.995073055555558,121.43624611111112,Danshuei River,2.25,6.9,1.5,57.2,0.47,7.64,25.6
Cinhi Bridge,25.03286611111111,121.45462,Danshuei River,4.25,6.2,2.5,130,0.95,7.24,26.2
Hochih Weir,24.824188888888887,121.251659,Danshuei River,1.50,5.9,<1.0,20.0,0.01,7.26,24.6
Hocungein Intake,24.96822222222222,121.40461111111112,Danshuei River,1.50,8.1,1.1,32.6,0.36,7.87,27.6
SingSin Bridge,24.89563888888889,121.37377694444444,Danshuei River,1.00,8.8,<1.0,3.8,0.03,8.23,25.7
Sansia Bridge,24.934632,121.374865,Danshuei River,1.00,8.0,1.9,12.6,0.36,7.87,28.8
Beetan Bridge,24.96092388888889,121.535815,Danshuei River,1.00,8.7,<1.0,5.2,0.04,7.28,25.7
Jhongjheng Bridge,25.021306944444444,121.51423305555555,Danshuei River,1.50,6.6,2.0,21.3,0.37,7.35,24.7
Huajhong Bridge,25.010213055555557,121.49627,Danshuei River,2.00,6.0,2.7,19.5,0.51,7.08,24.8
Huajhian Bridge,25.034898000000002,121.483509,Danshuei River,2.50,4.8,2.1,29.0,0.92,7.24,26.1
Chiuche Weir,24.91233111111111,121.547495,Danshuei River,1.00,8.4,1.0,4.7,0.02,7.35,
Chintan Weir,24.94144111111111,121.54521388888888,Danshuei River,1.00,8.8,<1.0,5.2,0.03,7.14,25.6
Chintan Weir Intake,24.925410000000003,121.533135,Danshuei River,1.00,8.5,<1.0,3.4,0.03,7.11,24.4
Ciulan Bridge,24.988715000000003,121.52857305555555,Danshuei River,1.00,7.8,1.7,19.2,0.08,7.04,25.5
Shenkeng Jhongjheng Bridge,25.001205833333334,121.62143972222222,Danshuei River,1.50,8.2,1.2,20.2,0.08,7.50,26.8
Wanshou Bridge,24.992053055555555,121.572045,Danshuei River,2.00,6.9,4.9,37.9,0.19,7.35,27.2
Bao Bridge,24.97926611111111,121.55326805555555,Danshuei River,1.50,6.6,2.4,39.9,0.20,7.38,27.6
Fonlin Bridge,25.010776944444444,121.64198,Danshuei River,1.00,8.6,1.5,16.9,0.02,7.26,26.2
Jieshou Bridge,25.10640388888889,121.80539999999999,Danshuei River,1.00,8.2,1.3,9.6,0.35,7.62,28.2
Nungen Bridge,25.102836111111113,121.74162888888888,Danshuei River,1.00,7.4,2.5,12.2,0.28,7.42,28.8
Liuho Bridge,25.09477111111111,121.70375888888888,Danshuei River,3.25,4.8,3.2,18.3,1.36,7.22,28.8
Shihgein Bridge,25.078780833333333,121.69333194444445,Danshuei River,3.25,5.0,4.2,18.4,1.03,7.32,30.2
Jiangpei Bridge,25.068573,121.65564,Danshuei River,3.00,6.4,3.6,31.6,0.94,7.48,30.8
Minchenda Bridge,25.063466944444446,121.56951611111111,Danshuei River,4.50,1.2,2.5,16.3,1.19,7.16,28.7
Dajhih Bridge,25.076458055555555,121.54445388888888,Danshuei River,4.50,1.0,1.9,16.0,1.19,7.05,28.5
Bialin Bridge,25.088435,121.51372583333334,Danshuei River,4.50,0.4,1.8,9.0,1.75,7.08,28.4
Diolin Station,25.058333333333334,121.81991666666666,Danshuei River,1.00,8.0,<1.0,4.9,0.02,7.52,26.6
Hodon Station,25.088153888888886,121.82867,Danshuei River,1.00,8.1,1.1,4.8,0.02,7.82,27.2
Nanhooda Bridge,25.063235000000002,121.6120211111111,Danshuei River,4.50,1.2,2.6,11.4,1.32,7.14,28.5
Chenmei Bridge,25.05366888888889,121.58329499999999,Danshuei River,4.50,1.6,2.0,18.2,1.12,7.06,28.5
Jhongsan Bridge,25.073886944444443,121.52511388888888,Danshuei River,4.50,0.8,2.3,9.2,1.26,7.05,28.2
Geolooda Bridge,25.01875397222222,121.36234805555554,Nankan River,4.50,6.8,6.7,6.4,9.55,7.79,28.8
Gueishan Bridge,24.997021944444445,121.33995,Nankan River,5.00,6.3,5.0,4.6,3.52,7.60,28.6
Tianju Bridge,25.00702777777778,121.3141111111111,Nankan River,4.00,6.4,7.8,10.4,2.75,7.68,30.3
Dakwai River Bridge,25.011648055555554,121.30911388888889,Nankan River,5.75,4.5,12.8,9.8,5.26,7.64,30.4
Nankan River Bridge,25.055733055555557,121.28095694444444,Nankan River,5.00,5.6,10.5,19.0,7.45,7.48,30.3
Tianliao Bridge,25.10213888888889,121.25077777777778,Nankan River,4.00,5.5,6.8,13.5,2.69,7.83,30.3
Dapoo Bridge,25.02508611111111,121.36924797222221,Nankan River,5.75,3.8,12.6,5.5,8.68,7.57,28.7
Shinshing Road Bridge,24.941833333333335,121.27686111111112,Nankan River,3.25,5.9,3.4,13.1,1.30,7.66,28.2
Hontia Bridge,24.98849638888889,121.28371027777777,Nankan River,4.00,5.8,6.5,7.6,2.67,7.73,28.8
Singein Bridge,25.009731111111112,121.28264305555555,Nankan River,5.00,5.1,7.6,8.2,3.95,7.48,29.4
Jiadong River Bridge,25.034333333333336,121.27752777777778,Nankan River,4.50,5.2,6.4,38.3,2.66,7.48,29.7
Meidooli Bridge,24.87427,121.21329111111112,Laojiie River,3.75,12.3,4.9,6.7,4.04,7.13,27.2
Peishih Bridge,24.92482888888889,121.21244194444445,Laojiie River,5.00,6.3,6.0,5.1,4.20,7.30,28.8
Songwu,24.943376944444445,121.21009500000001,Laojiie River,3.50,6.5,6.0,7.1,2.42,7.59,29.0
Shinpoo Bridge,25.004955555555554,121.20934472222223,Laojiie River,2.00,6.9,3.7,7.4,0.86,7.56,30.2
Jhongjheng Bridge,25.063758055555557,121.19639694444444,Laojiie River,1.50,8.0,3.1,8.8,0.26,8.62,31.2
Shiutsugan No.1,25.07744361111111,121.17761194444445,Laojiie River,2.00,7.4,3.3,10.5,0.68,7.60,28.7
Pingjhen 1st Bridge,24.920993055555556,121.19616111111111,Laojiie River,2.00,7.8,3.3,8.0,0.55,7.62,29.2
Yunin no. 1 Bridge,24.903113055555554,121.15162297222223,Shezih River,1.00,7.2,1.8,3.7,0.08,7.48,27.0
Yuemei Bridge,24.918754972222224,121.14627694444445,Shezih River,5.00,5.7,9.5,5.5,9.12,7.59,28.0
Laofandian Bridge,24.93578997222222,121.1237411111111,Shezih River,4.50,7.2,5.5,14.5,3.68,7.84,29.4
Shezih Bridge,24.960846944444445,121.09404694444444,Shezih River,1.00,7.8,1.9,9.4,0.13,8.03,29.0
Bendzugon Bridge,24.982991944444443,121.02730611111112,Shezih River,3.25,6.3,7.3,10.2,0.98,8.15,31.9
Yuanben Bridge,24.94394388888889,121.08813305555555,Fusing River,2.00,7.2,3.8,46.2,0.28,7.78,29.4
Sinhoo Bridge,24.94344611111111,121.04595694444444,Fusing River,2.00,7.7,3.6,13.4,0.63,7.87,29.8
Shenkeng Bridge,24.939901111111112,121.00271597222222,Fusing River,1.50,7.4,3.4,10.8,0.19,7.89,30.1
Dong Xing Bridge,24.909138888888886,121.01031,Sinfong River,1.00,8.8,2.6,7.7,0.19,7.38,31.4
Zhong Shan Bridge (Sinfo,24.906666666666666,120.99556472222223,Sinfong River,1.50,7.8,3.5,10.1,0.50,7.96,32.5
Wuming Bridge,24.86775,120.99561111111112,Sinfong River,5.00,5.6,8.2,11.7,10.3,7.16,30.1
Shanchee Bridge,24.869095972222222,120.99555305555556,Sinfong River,5.00,5.6,7.9,16.2,10.8,7.21,30.8
Siangbee Bridge,24.887735,120.98646694444444,Sinfong River,4.50,6.5,5.5,6.5,8.19,7.63,32.4
Honmoa Harbor,24.9089675,120.97195361111112,Sinfong River,2.25,7.2,2.5,16.0,1.85,7.64,30.0
Doochunda Bridge,24.785555000000002,121.17565305555556,Fongshan River,1.00,8.4,1.2,4.0,0.04,7.99,26.6
Sinpooda Bridge,24.825681111111113,121.06568694444444,Fongshan River,1.00,8.0,1.0,3.8,0.04,8.04,27.9
Fongshan River Bridge,24.852576000000003,121.00480194444444,Fongshan River,1.00,8.4,1.8,7.5,0.22,8.02,28.5
Fonggonda Bridge,24.85891666666667,120.94975472222222,Fongshan River,2.00,7.1,1.8,22.5,0.62,7.65,30.2
Sansheng Bridge,24.832556944444445,121.0975461111111,Fongshan River,1.00,7.7,2.3,6.2,0.08,7.66,27.9
Jhulinda Bridge,24.74768388888889,121.09359611111111,Toucian River,1.00,9.2,<1.0,1.5,0.01,8.55,29.1
Jhongjhengda Bridge,24.785687972222224,121.0576161111111,Toucian River,1.00,8.4,1.1,6.4,0.03,8.72,29.9
Toucian River Bridge,24.822895,120.99701,Toucian River,1.00,9.0,1.2,6.0,0.15,8.51,30.8
Sichiuda Bridge,24.82509111111111,120.97929611111111,Toucian River,1.00,9.1,1.2,4.8,0.09,7.99,29.3
Wanfonda Bridge,24.66806,121.119079,Toucian River,1.00,9.3,<1.0,2.2,0.04,8.62,25.2
Paosan Reservoir water Intake,24.69001861111111,121.103045,Toucian River,1.00,9.0,<1.0,1.9,0.04,8.61,26.1
Jhudongda Bridge,24.722675,121.10329388888889,Toucian River,1.00,9.7,<1.0,2.8,0.04,8.64,28.4
Neiwun Suspension Bridge,24.702031972222223,121.1832388888889,Toucian River,1.00,8.7,<1.0,1.5,0.02,8.67,27.2
Zhongzheng Bridge,24.768083333333333,120.98852777777778,Keya River,3.75,6.1,3.8,36.4,1.30,7.92,27.8
Chintsao Lake,24.775652777777776,120.96980555555555,Keya River,2.00,10.4,4.5,31.6,0.47,8.09,0
Keya River Bridge,24.796736111111112,120.9588138888889,Keya River,5.75,3.6,7.4,12.4,7.68,7.44,29.5
Siangya Bridge,24.803228055555557,120.92535694444445,Keya River,4.25,6.7,4.2,23.9,7.92,7.70,31.1
Sincheng Bridge,24.729906944444444,120.96438111111111,Yangang River,1.50,7.4,2.2,37.0,0.16,7.98,30.4
Jhongai Bridge,24.729975,120.91713397222223,Yangang River,1.00,6.9,2.2,15.2,0.16,7.68,30.6
Chenren Bridge,24.740821944444445,120.906295,Yangang River,3.25,7.6,3.2,39.2,1.45,7.80,30.0
Yongsing Bridge,24.617528,121.00581,Jhonggang River,1.50,8.6,3.5,4.6,0.08,8.15,24.9
Sanwanda Bridge,24.661898055555554,120.95911305555556,Jhonggang River,1.00,8.6,<1.0,5.9,0.06,8.03,26.6
Pinanda Bridge,24.675886944444446,120.94921305555556,Jhonggang River,1.00,8.3,<1.0,17.9,0.10,8.12,27.1
Dongcin Bridge,24.680551944444446,120.90790694444445,Jhonggang River,1.00,8.5,<1.0,17.2,0.13,8.18,28.0
Jhonggang River Bridge,24.666946000000003,120.8817,Jhonggang River,1.50,7.7,<1.0,30.8,0.19,7.77,26.3
Wufu Bridge,24.66420833333333,120.84228055555555,Jhonggang River,2.25,7.1,<1.0,60.0,0.37,7.93,27.2
Nangang River Bridge,24.65589888888889,120.86785099999999,Jhonggang River,2.00,6.5,3.7,35.2,0.38,7.76,27.0
Gueishan Bridge,24.536440000000002,120.81591694444444,Houlong River,2.75,8.3,6.2,20.4,0.06,8.42,27.5
Yuqing Bridge,24.56125,120.83944444444444,Houlong River,2.25,8.3,9.5,14.6,0.05,8.36,27.8
Peishih Bridge,24.594896944444443,120.82556305555555,Houlong River,2.25,8.0,12.8,10.9,0.11,8.29,28.4
Houlong River Bridge,24.608743888888892,120.78429797222222,Houlong River,2.25,6.8,5.7,10.2,0.30,8.07,27.6
Guanhai Bridge,24.613958333333336,120.76303888888889,Houlong River,1.00,6.8,<1.0,17.6,0.23,7.96,28.2
Jhushenda Bridge,24.44951,120.77784805555555,Sihu River,1.00,7.2,<1.0,3.1,0.05,7.10,26.6
Tongluo Bridge,24.494193055555556,120.78059888888889,Sihu River,1.00,8.0,<1.0,4.2,0.04,7.69,27.6
Longsho Bridge,24.533339,120.74787194444444,Sihu River,1.00,8.4,<1.0,5.8,0.08,8.20,28.6
Sihhu Bridge,24.563268055555557,120.75260097222223,Sihu River,1.00,8.2,<1.0,10.3,0.07,8.16,29.3
Siangbee Bridge,24.357472222222224,120.94677777777778,Da-an River,1.00,8.5,<1.0,10.5,0.11,8.12,21.0
Beifan Bridge,24.29436111111111,120.91052777777779,Da-an River,1.00,8.2,<1.0,4.3,0.01,8.25,22.9
Lanshih Bridge,24.307695,120.81732099999999,Da-an River,1.00,8.0,1.7,7.0,0.01,8.34,26.3
Yilida Bridge,24.348666666666666,120.73422222222223,Da-an River,1.00,7.4,<1.0,7.5,0.02,8.44,30.2
Da-an River Bridge,24.370575,120.64491611111112,Da-an River,3.25,7.5,1.0,115,0.05,8.38,31.8
Da-an River Mouth,24.401416694444443,120.61059722222221,Da-an River,2.25,7.5,<1.0,89.4,0.06,8.21,30.4
Ciechen Bridge,24.308151944444447,120.835937,Da-an River,1.00,8.8,1.7,8.6,0.07,8.04,26.8
Wenfon Bridge,24.312466944444445,120.830495,Da-an River,1.00,8.6,1.6,4.5,0.21,8.32,27.5
Inbin Bridge,24.347773055555553,121.30815194444445,Dajia River,1.00,8.1,<1.0,<1.0,0.01,8.08,15.3
Changcing Bridge,24.17489,120.9746938888889,Dajia River,2.25,8.3,<1.0,79.2,0.02,7.71,22.4
Longanda Bridge,24.171936111111112,120.83791805555555,Dajia River,1.00,8.2,<1.0,11.1,0.02,7.96,24.8
Dongfonda Bridge,24.26084611111111,120.82003194444444,Dajia River,1.50,8.2,<1.0,36.3,0.03,8.03,24.6
Shihgang Dam,24.28375,120.77981472222223,Dajia River,1.50,8.3,1.5,32.2,0.04,8.05,25.4
Jinxing Bridge,24.275055555555554,120.77397222222223,Dajia River,1.00,7.8,1.5,18.0,0.06,7.90,28.1
Houfonda Bridge,24.28268611111111,120.72280500000001,Dajia River,1.50,8.3,<1.0,33.5,0.04,8.12,26.0
Hiway Bridge,24.283931000000003,120.69470694444445,Dajia River,1.50,8.0,1.5,30.7,0.05,7.76,27.2
Dajia River Bridge,24.31547,120.60490499999999,Dajia River,2.25,8.2,1.7,53.1,0.08,8.04,25.8
Cingliu Bridge,24.063083055555555,120.95429111111112,Wu River,3.25,8.6,<1.0,2240,0.08,8.02,23.1
Chenfon Bridge,24.027046944444443,120.82691194444445,Wu River,3.25,8.6,<1.0,2760,0.12,8.14,24.2
Wu River Bridge,24.008936944444443,120.69559694444445,Wu River,3.75,8.4,3.3,2700,0.11,8.20,26.3
Fumazun,24.10438611111111,120.57531999999999,Wu River,3.75,7.3,3.5,2200,0.27,7.70,28.2
Dadu Bridge,24.10593,120.58213694444444,Wu River,3.25,7.6,1.8,1820,0.12,7.93,28.1
Ailan Bridge,23.966918999999997,120.94651111111112,Wu River,2.75,8.0,12.1,24.4,0.26,7.13,24.6
Beisan Bridge,23.983003888888888,120.87152888888889,Wu River,3.25,8.0,1.6,4040,0.13,8.12,25.2
Gandzulin Bridge,24.017999,120.84402,Wu River,3.25,8.4,1.3,3510,0.13,8.18,25.4
Jhongjheng Bridge,23.882531944444445,120.75777694444444,Wu River,1.50,8.0,4.4,8.7,0.05,8.48,28.8
Pinlin Bridge,23.952397972222222,120.6574538888889,Wu River,3.25,7.2,3.0,347,0.25,8.08,29.6
Limin Bridge,24.013468055555556,120.6375688888889,Wu River,3.25,7.0,2.6,108,0.14,8.07,31.0
Fongia Bridge,24.178476111111113,120.73777194444445,Wu River,1.00,8.2,1.5,5.6,0.08,8.45,28.2
Dali Bridge,24.093878055555553,120.68908611111111,Wu River,7.25,5.9,24.2,480,1.84,7.50,26.8
Sinan Bridge,24.092068055555554,120.64337111111112,Wu River,5.50,6.0,12.4,375,0.69,7.56,28.2
Chenho Bridge,24.169646944444445,120.705355,Wu River,1.00,8.7,2.4,7.0,0.16,8.46,27.3
Shuwan Bridge,24.110045000000003,120.66566305555556,Wu River,5.50,6.4,13.5,176,0.98,7.50,26.3
Guogwon Bridge,24.117481,120.67955694444444,Wu River,4.00,5.4,14.1,19.0,1.57,7.37,27.0
Donghi Bridge,24.177101944444445,120.62793611111111,Wu River,4.00,7.4,8.4,80.4,0.95,7.40,27.6
Gichen Bridge,24.106336111111112,120.61499388888889,Wu River,3.25,6.3,13.7,36.1,0.47,7.53,28.5
Yufonda Bridge,23.808405,120.84348,Jhuoshuei River,4.50,8.5,10.7,7360,0.15,8.28,23.7
Ji Lu Bridge,23.81507861111111,120.78286111111112,Jhuoshuei River,3.25,8.4,1.6,6050,0.14,8.24,24.4
Minchiuda Bridge,23.817803972222222,120.70584611111111,Jhuoshuei River,3.25,9.0,1.6,6500,0.13,8.38,25.0
Xizhou Bridge,23.80975,120.46947222222222,Jhuoshuei River,5.50,8.0,18.9,4660,0.14,8.31,27.5
Nanyunda Bridge,23.759175,120.65697111111112,Jhuoshuei River,3.25,7.9,1.4,142,0.10,8.43,27.6
Rueitsau Bridge,23.626689722222224,120.65615277777778,Jhuoshuei River,4.50,8.4,5.2,154,0.05,8.47,25.6
Tungyou River Dike,23.645833333333332,120.658625,Jhuoshuei River,3.25,8.2,1.4,131,0.07,8.48,26.0
Cihtong no. 1 Bridge,23.751467,120.50817583333334,Sin Huwei River,3.75,7.4,<1.0,2940,0.87,8.17,26.4
Sinhuwei River Bridge,23.750846972222224,120.49701805555556,Sin Huwei River,3.75,7.2,<1.0,4130,0.84,8.10,26.9
Jhongjheng Bridge,23.743513055555557,120.42238194444445,Sin Huwei River,5.00,6.5,3.4,444,2.16,7.95,28.2
Fon Bridge,23.74204611111111,120.34734888888889,Sin Huwei River,5.00,4.8,2.8,344,1.77,7.66,29.9
Hifon Bridge,23.74039888888889,120.24572388888889,Sin Huwei River,5.50,5.2,4.1,376,1.86,7.71,30.2
Wengang Bridge,23.761916666666668,120.22386111111112,Sin Huwei River,9.00,0.8,13.4,248,14.0,7.74,30.9
Beigangda Bridge,23.56255888888889,120.30148997222221,Beigang River,7.00,4.2,7.7,469,2.04,7.65,29.3
Yunchiada Bridge,23.513793888888888,120.17793388888889,Beigang River,8.00,3.3,43.5,222,2.05,7.69,29.2
Meinan Bridge,23.700586972222222,120.59999805555555,Beigang River,3.25,7.8,1.8,190,0.11,8.34,28.3
Shihliuban Bridge,23.718602999999998,120.57327,Beigang River,3.25,7.6,<1.0,591,0.10,8.04,28.0
Rong Bridge,23.731215,120.52343499999999,Beigang River,3.25,7.4,1.1,1760,0.50,8.04,27.8
Tokooda Bridge,23.681451111111112,120.41863497222222,Beigang River,6.25,6.1,8.3,905,2.20,7.80,27.6
Heping Bridge,23.608475000000002,120.39851111111112,Beigang River,6.25,5.7,7.9,186,1.45,7.59,29.3
Songchiuda Bridge,23.52693111111111,120.55621305555556,Puzih River,1.00,8.3,<1.0,9.9,<0.01,8.48,27.2
Jhucida Bridge,23.524958055555555,120.54628888888888,Puzih River,1.00,8.9,<1.0,7.4,<0.01,8.46,29.0
Second Super highway Sidewalk bridge,23.50690888888889,120.48953694444444,Puzih River,2.25,7.9,1.1,69.2,0.01,8.42,29.0
Neochoci Bridge,23.51376388888889,120.44340305555556,Puzih River,3.25,6.8,1.8,113,0.22,7.98,29.2
Yuemeitan Bridge,23.51409111111111,120.3604161111111,Puzih River,4.50,5.9,3.9,53.8,1.12,7.80,30.8
Jieshou Bridge,23.482059999999997,120.29326,Puzih River,4.50,4.8,3.9,51.8,1.17,8.08,30.7
Puzih River Bridge,23.47560611111111,120.24506083333334,Puzih River,5.25,3.9,3.8,86.7,1.07,7.81,31.1
Dongshihda Bridge,23.459245,120.1774288888889,Puzih River,5.00,6.8,4.3,209,1.08,7.69,30.3
Dungshrnan Bridge,23.443694444444446,120.16886111111111,Puzih River,5.50,4.0,4.9,819,0.73,7.78,31.1
Chuko Bridge,23.438861111111112,120.60591666666666,Bajhang River,1.50,8.0,<1.0,44.9,<0.01,8.53,25.9
Wuhuliao Bridge,23.451249999999998,120.55077777777778,Bajhang River,3.25,7.9,<1.0,143,0.01,8.48,26.9
Jyunhui Bridge,23.458916666666667,120.45805555555556,Bajhang River,3.25,7.9,<1.0,109,0.04,8.42,29.0
Bajhang River Bridge,23.403916666666664,120.38230555555555,Bajhang River,3.25,7.1,2.8,550,0.18,8.04,28.4
Hocin Bridge,23.328972222222223,120.25261111111111,Bajhang River,－,－,－,－,－,－,0
Chiananda Bridge,23.31277777777778,120.15277777777779,Bajhang River,5.00,4.9,5.1,1540,0.31,7.82,29.9
Jishueici Bridge,23.296115,120.32414,Jishuei River,3.75,4.8,2.6,173,0.21,7.80,30.6
Teisian Vi.,23.261160833333335,120.27284777777777,Jishuei River,5.50,5.1,5.7,291,0.77,7.60,30.4
Jhaigon Bridge,23.253527777777776,120.20355555555555,Jishuei River,5.00,4.1,3.3,309,0.40,7.68,30.3
Erngon Bridge,23.26604,120.19042694444445,Jishuei River,4.50,3.1,2.9,276,0.49,7.62,30.5
Nankunsan,23.291588055555557,120.14430305555557,Jishuei River,5.00,3.8,1.7,176,0.74,7.66,31.4
Chinyie Bridge,23.338693888888887,120.40718805555557,Jishuei River,6.25,3.0,4.7,476,1.16,7.64,30.0
Mugiliao,23.363008888888892,120.45423583333334,Jishuei River,－,－,－,－,－,－,0
Zengwun no.1 Bridge,23.192300833333334,120.48809305555555,Zengwun River,3.25,7.3,<1.0,135,<0.01,7.96,30.1
Yujing Bridge,23.117880972222224,120.45831305555556,Zengwun River,3.25,7.3,<1.0,712,0.13,8.21,28.6
Dzomalia Bridge,23.137581944444445,120.43045388888889,Zengwun River,3.25,7.2,<1.0,1320,0.18,8.10,30.7
Erncida Bridge,23.115661944444447,120.384388,Zengwun River,3.25,6.7,<1.0,532,0.11,8.14,30.9
Peishihchou Bridge,23.120303888888888,120.34538611111111,Zengwun River,3.25,7.0,<1.0,112,0.12,8.20,30.4
Zengwun River Bridge,23.155541944444444,120.33807388888889,Zengwun River,3.25,9.6,<1.0,159,0.19,7.93,30.7
Marsonda Bridge,23.171461111111114,120.26072888888889,Zengwun River,3.75,6.3,<1.0,424,0.10,8.09,30.6
Sigangda Bridge,23.10876888888889,120.20493611111111,Zengwun River,3.25,9.1,<1.0,620,0.14,7.92,30.9
Guoshen Bridge,23.085799972222222,120.13482,Zengwun River,3.25,7.6,<1.0,133,0.33,7.70,30.9
Zengwun River Mouth,23.044488055555558,120.06263,Zengwun River,3.75,6.1,<1.0,154,0.21,7.98,30.7
Yufonda Bridge,23.097060833333334,120.36989805555555,Zengwun River,3.25,6.7,<1.0,193,0.10,8.04,30.6
Tonsin Bridge,23.05921638888889,120.36320555555555,Yanshuei River,1.50,7.0,<1.0,27.3,0.09,8.12,31.5
Chenniao Bridge,23.0723,120.35825,Yanshuei River,2.00,6.4,<1.0,22.2,0.09,8.30,31.1
Fonhua Bridge,23.05908388888889,120.27777694444444,Yanshuei River,4.75,3.4,2.0,52.4,2.50,7.89,32.6
Yungan Bridge,23.05138888888889,120.2395,Yanshuei River,4.25,5.2,2.0,27.3,3.26,7.54,30.8
Taiping Bridge,23.02499111111111,120.21554611111111,Yanshuei River,5.00,2.2,1.9,24.9,4.77,7.40,31.2
Yanshuei River Bridge,23.019773055555554,120.19246805555557,Yanshuei River,6.00,1.4,2.4,25.1,3.14,7.43,30.8
Erntsun Bridge,22.916728000000003,120.46046194444445,Erren River,3.25,7.1,2.1,1970,0.42,7.98,27.4
Gootin Bridge,22.888018055555555,120.39633500000001,Erren River,5.00,5.5,3.0,6020,1.06,8.16,27.7
Chongdeda Bridge,22.875676944444447,120.36184694444444,Erren River,4.75,4.8,3.3,18200,0.56,7.94,27.8
Nansyong Bridge,22.889388888888888,120.33819444444444,Erren River,4.25,4.8,2.9,10400,0.53,7.88,27.9
Shihan Bridge,22.900694444444444,120.31019444444445,Erren River,5.00,3.9,3.0,8320,0.63,7.81,28.7
Erntsuncin Bridge,22.915499999999998,120.22608333333334,Erren River,5.75,3.4,2.3,2380,1.45,7.73,28.9
Nandin Bridge,22.918726,120.18458600000001,Erren River,7.00,4.3,7.0,17100,2.10,7.62,29.8
Chenguo Village,22.998721111111113,120.25059997222222,Erren River,3.25,5.7,2.9,26.2,2.54,7.70,30.4
Wukon Bridge,22.927526111111113,120.22161305555555,Erren River,5.75,3.0,2.0,101,1.40,7.40,29.8
Yunnin Bridge,22.925191944444446,120.19435694444445,Erren River,－,－,－,－,－,－,0
Agongdian River,22.803250000000002,120.36121,Agongdian River,2.25,8.8,1.8,51.4,0.01,8.51,32.7
High Speed Rail Bridge,22.80388888888889,120.32822,Agongdian River,4.00,2.7,1.2,40.3,1.18,7.59,33.0
Agongdian Bridge,22.785304972222225,120.29710305555555,Agongdian River,3.75,5.6,3.2,29.8,2.22,7.70,32.4
Cianchou Bridge,22.802938055555558,120.27987083333333,Agongdian River,7.25,1.0,9.3,23.8,7.47,7.68,32.6
Geogon Bridge,22.800741972222223,120.23212694444445,Agongdian River,5.50,2.8,4.4,22.0,5.21,7.71,32.1
Ligangda Bridge,22.79447888888889,120.50339111111111,Gaoping River,3.25,7.7,<1.0,1640,0.03,8.24,25.7
Linko Bridge,22.77067111111111,120.45271,Gaoping River,3.25,7.9,<1.0,3620,0.03,8.14,25.6
Gaopingda Bridge,22.64712611111111,120.43741111111112,Gaoping River,3.25,7.9,1.1,2560,0.37,8.15,25.9
Wandada Bridge,22.593358888888886,120.439785,Gaoping River,3.25,7.5,<1.0,1550,0.07,8.14,25.9
Shuangyuanda Bridge,22.49502777777778,120.41844444444445,Gaoping River,－,－,－,－,－,－,0
Sinfada Bridge,23.04855888888889,120.66916,Gaoping River,3.25,8.0,<1.0,956,0.01,8.22,23.2
Liougueida Bridge,22.99547111111111,120.63828000000001,Gaoping River,3.25,8.0,<1.0,938,0.03,8.27,23.8
Jiouru Bridge,22.724753055555553,120.48875611111112,Gaoping River,6.25,5.7,9.6,63.7,9.04,7.61,27.7
Dagean Bridge,22.880076111111112,120.64812305555556,Gaoping River,3.25,7.8,<1.0,1390,0.03,8.24,24.5
Beinoon Brideg,22.630278055555557,120.45802888888889,Gaoping River,3.50,3.9,2.8,7.9,2.86,7.35,29.0
Jiasian Intake,23.083111111111112,120.58455555555555,Gaoping River,3.25,8.4,<1.0,709,0.02,8.41,24.2
Yuemei Bridge,22.961101944444444,120.5217161111111,Gaoping River,3.25,8.3,1.0,1490,0.03,8.42,25.4
Sinciwei Bridge,22.874008055555556,120.487895,Gaoping River,3.25,7.8,<1.0,4520,0.08,8.32,26.3
Simenda Bridge,22.898643888888888,120.535864,Gaoping River,2.25,6.9,<1.0,87.4,0.13,7.90,28.1
Cinan Bridge,22.868449972222223,120.49660805555555,Gaoping River,2.25,7.2,<1.0,83.4,0.16,7.67,27.8
Chengde Bridge,22.613611111111112,120.58869444444444,Donggang River,2.00,5.9,1.1,35.6,0.31,7.49,26.9
Longdon Bridge,22.602935000000002,120.58295194444445,Donggang River,2.00,6.3,<1.0,45.7,0.24,7.47,26.9
Chaojhouda Bridge,22.56475,120.53966666666666,Donggang River,2.00,5.6,<1.0,29.8,0.43,7.59,28.0
Cinsheda Bridge,22.54219888888889,120.50416388888888,Donggang River,4.00,5.2,3.0,62.1,2.05,7.68,29.2
Gangci Pomping Station,22.504523055555556,120.46200694444445,Donggang River,3.25,5.3,2.1,34.2,2.73,7.66,29.4
Donggangda Bridge,22.477716944444442,120.459635,Donggang River,3.75,5.8,3.2,22.6,2.79,7.84,30.0
Sinbeida Bridge,22.461196944444445,120.55042,Linbian River,3.25,8.2,<1.0,1570,0.04,8.32,27.2
Linbianda Bridge,22.430816944444445,120.52326611111111,Linbian River,3.25,7.9,<1.0,3800,0.04,8.24,27.6
Fangliuda Bridge,22.34329888888889,120.61175194444444,Shuaimang River,3.25,8.0,<1.0,436,<0.01,8.39,27.8
Fangshan Bridge,22.25609888888889,120.65406694444445,Fangshan River,2.25,7.8,<1.0,87.1,<0.01,8.32,27.1
Itun Suspension Bridge,22.21258333333333,120.76366666666667,Fonggang River,1.00,7.9,<1.0,5.8,<0.01,8.02,26.2
Fongang Bridge,22.19586111111111,120.69116805555556,Fonggang River,1.00,7.8,<1.0,16.7,<0.01,8.32,27.4
Shihmen,22.123527777777777,120.77275,Sihchong River,1.50,9.8,<1.0,31.6,0.02,8.20,26.7
Erchongci,22.082791944444445,120.74083194444445,Sihchong River,1.50,10.5,<1.0,38.5,0.01,8.12,27.7
Longluntan,21.988222222222223,120.73783333333333,Baoli River,－,－,－,－,－,－,0
Linhia Bridge,22.05788888888889,120.711,Baoli River,2.75,5.8,<1.0,75.7,0.09,7.92,28.9
Gangkou Bridge,22.001496,120.819197,Gangkou River,1.00,7.7,<1.0,12.2,<0.01,8.19,29.0
Hichenda Bridge,21.988695,120.84102777777777,Gangkou River,1.50,8.0,<1.0,24.7,<0.01,8.26,29.5
Jhihben hotspring Bridge,22.695166666666665,121.02477777777777,Jhihben River,3.25,8.1,<1.0,642,0.05,8.02,26.8
Jhihben Bridge,22.701395972222222,121.0396,Jhihben River,3.25,8.0,<1.0,1320,0.04,8.17,26.8
Danan Bridge,22.760791944444446,121.04922499999999,Lijiia River,3.25,8.1,<1.0,457,<0.01,8.32,26.6
Fongyuanda Bridge,22.723465833333332,121.09519805555556,Lijiia River,3.25,7.8,<1.0,680,<0.01,8.34,28.5
Dabaliugeoba Intake,22.813972222222223,121.05,Tai Pingsi,1.00,8.3,<1.0,7.2,<0.01,8.42,24.6
Malan Bridge,22.76598111111111,121.132595,Tai Pingsi,－,－,－,－,－,－,0
Fonli Bridge,22.74644888888889,121.14232694444445,Tai Pingsi,10.00,0.5,88.0,137,4.39,7.92,30.4
Taitungda Bridge,22.792233055555556,121.144475,Beinan River,3.25,8.2,1.0,6440,0.07,8.12,26.2
Choulia Bridge,23.125638055555555,121.169128,Beinan River,3.75,8.2,4.4,15700,0.06,8.08,32.7
Lumin Bridge,22.891445,121.09419888888888,Beinan River,3.25,8.1,2.5,12600,0.09,8.12,24.5
Yulida Bridge,23.322925,121.3277661111111,Siouguluan River,3.25,8.2,<1.0,1030,0.05,7.92,25.2
Taipingci Bridge,23.393678055555554,121.33362597222222,Siouguluan River,3.25,8.3,<1.0,235,0.04,8.15,24.6
Rueisueida Bridge,23.485399972222222,121.40401611111112,Siouguluan River,3.25,7.8,<1.0,866,0.08,7.99,26.0
Wanlici Bridge,23.719596944444444,121.42623888888889,Hualien River,2.25,8.1,<1.0,85.0,0.10,8.22,26.4
Fonpin Bridge,23.813225,121.45256797222223,Hualien River,3.25,8.1,<1.0,680,0.05,8.19,26.3
Hualienda Bridge,23.923545833333336,121.59769888888889,Hualien River,3.25,7.5,<1.0,392,0.05,8.10,27.4
Sialousi Bridge,23.87859166666667,121.51874222222222,Hualien River,1.00,8.4,<1.0,7.0,0.03,8.46,27.4
Mugua River Bridge,23.93169388888889,121.53858611111112,Hualien River,3.25,8.8,<1.0,700,0.06,8.18,22.4
Taichang Bridge,23.983333333333334,121.56958333333333,Jian River,1.00,8.7,<1.0,11.2,0.14,7.96,20.9
Renli Bridge,23.968777777777778,121.59444444444443,Jian River,1.00,8.7,1.4,11.0,0.22,7.90,24.3
Shueiwui Bridge,24.005785,121.54607388888888,Meilun River,1.00,8.2,<1.0,<1.0,0.04,8.29,24.5
Chiali No 2 Bridge,24.016897,121.6049461111111,Meilun River,1.00,8.6,1.5,9.4,0.31,8.04,29.1
Chiacin Village,24.009405,121.60839499999999,Meilun River,1.00,7.3,2.3,13.9,0.49,7.92,29.2
Jhongjheng Bridge,23.980326111111108,121.61195388888888,Meilun River,1.00,7.1,1.1,9.8,0.33,7.82,28.6
Sanjhan Bridge,24.100662,121.608385,Sanjhan River,1.00,8.4,<1.0,3.2,0.04,8.36,25.4
Podooda Bridge,24.18130888888889,121.49549583333334,Liwu River,2.25,8.5,<1.0,94.5,0.04,8.36,23.6
Geinwun Bridge,24.156348055555554,121.62174805555554,Liwu River,3.25,8.5,<1.0,369,0.04,8.18,24.2
Dajhuoshuei Bridge,24.32484,121.74306388888888,Heping River,3.25,8.2,<1.0,1480,0.07,8.19,25.7
Ginyang No 2,24.435946972222222,121.75844194444444,Nan-ao River,1.00,8.5,<1.0,<1.0,0.04,7.65,23.9
Aowei Bridge,24.449141944444445,121.78002111111111,Nan-ao River,1.00,8.6,<1.0,12.6,0.03,8.21,24.3
Nanao Bridge,24.460291944444442,121.78859888888888,Nan-ao River,1.50,8.4,<1.0,27.8,0.03,8.20,24.3
Yunlali,24.573716944444445,121.84455888888888,Su-ao River,－,－,－,－,－,－,0
Bimei Bridge,24.596169999999997,121.85372,Su-ao River,1.00,7.7,<1.0,2.8,0.02,7.26,25.4
Sincheng Bridge,24.615288055555556,121.81234194444444,Sincheng River,1.00,8.3,1.0,1.8,0.02,8.10,26.7
Longdeda Bridge,24.63236388888889,121.83156,Sincheng River,1.00,8.7,<1.0,1.2,0.04,8.53,26.9
Woolaokan,24.6035,121.81085999999999,Sincheng River,1.00,8.1,1.5,2.1,0.04,8.10,25.9
Shrsanfen Bridge,24.631888888888888,121.773,Dongshan River,1.50,6.4,<1.0,14.2,0.15,7.38,25.2
Dongshan River Bridge,24.639163055555557,121.78689,Dongshan River,1.50,5.4,1.2,5.7,0.36,7.68,26.0
Lidzugein Bridge,24.669898055555556,121.81411694444444,Dongshan River,2.00,5.8,3.0,18.0,0.57,7.55,28.6
Cingshueida Gate,24.692006111111112,121.83297194444444,Dongshan River,2.00,7.2,3.6,28.8,0.50,7.93,29.0
Lonbei,24.681098000000002,121.60592399999999,Lanyang River,1.00,8.3,<1.0,2.4,0.02,7.14,23.6
Shangshengo,24.704817,121.724819,Lanyang River,3.25,7.9,<1.0,145,0.03,8.27,25.5
Lanyangda Bridge,24.71361111111111,121.772,Lanyang River,3.25,7.8,<1.0,582,0.03,8.20,25.6
Sinlanda Bridge,24.713763,121.820112,Lanyang River,3.25,7.8,2.2,903,0.05,8.30,26.3
Neodao Bridge,24.642267999999998,121.567251,Lanyang River,3.25,7.9,<1.0,300,0.02,8.29,24.0
Juan Bridge,24.84133333333333,121.82336111111111,Dezihkou River,2.50,5.5,1.4,43.2,0.80,7.70,28.4
Tetzekou Bridge,24.806361111111112,121.77241666666667,Dezihkou River,3.25,6.0,4.2,16.6,1.78,7.50,26.6
Fusing Bridge,24.817713972222222,121.812895,Dezihkou River,4.00,5.2,2.3,79.9,1.35,7.46,28.7
Meichien Cottage,24.83145111111111,121.74705888888889,Dezihkou River,1.00,8.2,<1.0,3.8,0.02,7.98,24.7
Sinliaoda Bridge,25.031796944444444,121.834769,Shuangsi,1.00,8.3,1.3,8.2,0.06,7.07,26.1
Gongliaoda Bridge,25.020709999999998,121.9095288888889,Shuangsi,1.00,7.7,1.4,17.9,0.04,7.10,28.0
